{
"type": "FeatureCollection",
"name": "wildwood",
"crs": { "type": "name", "properties": { "name": "urn:ogc:def:crs:OGC:1.3:CRS84" } },
"features": [
{ "type": "Feature", "properties": { "OBJECTID": 4, "osm_id": "626304549", "code": 2701, "fclass": "Trailhead", "name": "Gem Lake Trailhead" }, "geometry": { "type": "Point", "coordinates": [ -105.51320389974012, 40.396533200147132 ] } },
{ "type": "Feature", "properties": { "OBJECTID": 435, "osm_id": "358911702", "code": 4111, "fclass": "Trailhead", "name": "Castle Mountain" }, "geometry": { "type": "Point", "coordinates": [ -105.550555099638075, 40.389705899707565 ] } },
{ "type": "Feature", "properties": { "OBJECTID": 436, "osm_id": "358911706", "code": 4111, "fclass": "Trailhead", "name": "MacGregor Mountain" }, "geometry": { "type": "Point", "coordinates": [ -105.576944900186959, 40.413594700035446 ] } },
{ "type": "Feature", "properties": { "OBJECTID": 497, "osm_id": "358943123", "code": 4111, "fclass": "Trailhead", "name": "Deer Mountain" }, "geometry": { "type": "Point", "coordinates": [ -105.584723300240057, 40.379428299876167 ] } },
{ "type": "Feature", "properties": { "OBJECTID": 585, "osm_id": "955167305", "code": 2301, "fclass": "Restaurant", "name": "Mountain Home Cafe" }, "geometry": { "type": "Point", "coordinates": [ -105.515479500178742, 40.381216299592609 ] } },
{ "type": "Feature", "properties": { "OBJECTID": 587, "osm_id": "3280737435", "code": 2301, "fclass": "Restaurant", "name": "Sundeck Restaurant" }, "geometry": { "type": "Point", "coordinates": [ -105.545169999695702, 40.364362599754202 ] } }
]
}
